name,latitude,longitude,specialties
MediCare Pharmacy,34.0522,-118.2437,"General,Diabetes"
HealthHub Rx,34.055,-118.25,"General,Hypertension"
QuickPill Pharmacy,34.048,-118.235,"General,Asthma"
Wellness Drugstore,34.06,-118.26,"General,Pain Management"
City Central Pharmacy,34.05,-118.24,"General"
Rural Health Pharmacy,38.5545,-89.1732,"General"
Mountain View Meds,39.4371,-97.3851,"General"
